[
  {"id":1,"name":"Delirium Café","address":"Impasse de la Fidélité 4A, 1000 Brussels","lat":50.8489,"lng":4.3537,"sourceUrl":"https://www.deliriumcafe.be/","verifiedDate":"2026-04","desc":"Guinness World Record holder — 2000+ beers. A bucket-list destination for any beer lover.","openingHours":"10:00-04:00","tags":["lively","touristy","high-end"],"beers":["Delirium Tremens","Chimay Blue","Chimay Red","Westmalle Tripel","Orval","Rochefort 10","Duvel","La Chouffe","Leffe Blond","Hoegaarden","Pauwel Kwak","Gulden Draak","Cantillon Gueuze","Lindemans Kriek","Tripel Karmeliet","Stella Artois"]},
  {"id":2,"name":"Moeder Lambic Fontainas","address":"Place Fontainas 8, 1000 Brussels","lat":50.8458,"lng":4.3465,"sourceUrl":"https://www.moederlambic.com/","verifiedDate":"2026-04","desc":"The gold standard for craft beer in Brussels. 40+ taps focusing on lambics and artisanal Belgian brews.","openingHours":"11:00-01:00","tags":["chill","local","food"],"beers":["Cantillon Gueuze","3 Fonteinen Oude Geuze","Boon Oude Geuze","Saison Dupont","Orval","Delirium Tremens","Rodenbach Grand Cru","Fantôme Saison","Duchesse de Bourgogne"]},
  {"id":3,"name":"Brasserie Cantillon","address":"Rue Gheude 56, 1070 Anderlecht","lat":50.8428,"lng":4.3314,"sourceUrl":"https://www.cantillon.be/","verifiedDate":"2026-04","desc":"A legendary working lambic brewery-museum. Taste lambic straight from the source.","openingHours":"10:00-17:00","tags":["historic","brewery","local"],"beers":["Cantillon Gueuze","Lindemans Kriek"]},
  {"id":4,"name":"À La Mort Subite","address":"Rue Montagne aux Herbes Potagères 7, 1000 Brussels","lat":50.8486,"lng":4.3561,"sourceUrl":"https://www.alamortsubite.com/","verifiedDate":"2026-04","desc":"Historic café since 1910. Famous for its house Gueuze and Kriek served in a stunning Art Deco interior.","openingHours":"11:30-23:30","tags":["historic","chill","touristy","food"],"beers":["Lindemans Kriek","Hoegaarden","Leffe Blond","Leffe Brune","Stella Artois","Jupiler"]},
  {"id":5,"name":"Poechenellekelder","address":"Rue du Chêne 5, 1000 Brussels","lat":50.8449,"lng":4.3499,"sourceUrl":"https://maps.google.com/?q=Poechenellekelder+Brussels","verifiedDate":"2026-04","desc":"Quirky puppet-themed tavern next to Manneken Pis. Extensive Trappist and Lambic selection.","openingHours":"11:00-00:00","tags":["lively","historic","touristy"],"beers":["Cantillon Gueuze","Chimay Blue","Chimay Red","Chimay Triple","Westmalle Dubbel","Westmalle Tripel","Orval","Rochefort 8","Rochefort 10","Westvleteren 12","Leffe Blond","Duvel","Tripel Karmeliet"]},
  {"id":6,"name":"Brussels Beer Project","address":"Rue Antoine Dansaert 188, 1000 Brussels","lat":50.8528,"lng":4.3424,"sourceUrl":"https://beerproject.be/","verifiedDate":"2026-04","desc":"Leaders of Brussels' modern craft movement. Innovative experimental brews and collaborations.","openingHours":"14:00-23:00","tags":["lively","brewery","terrace"],"beers":["Duvel","Delirium Tremens","Tripel Karmeliet","Saison Dupont","La Chouffe","Hoegaarden","Delta IPA","Babylone"]},
  {"id":7,"name":"Brasserie de la Senne","address":"Drève Anna Boch 19-21, 1020 Brussels","lat":50.8602,"lng":4.3084,"sourceUrl":"https://www.brasseriedelasenne.be/","verifiedDate":"2026-04","desc":"Highly respected local brewery driving the Brussels beer revival. Fresh, high-quality, drinkable ales.","openingHours":"15:00-21:00","tags":["chill","brewery","local"],"beers":["Zinnebir","Taras Boulba","Saison Dupont","Cantillon Gueuze","Duvel","Orval","Hoegaarden"]},
  {"id":8,"name":"Brasserie Surréaliste","address":"Place du Nouveau Marché aux Grains 22, 1000 Brussels","lat":50.8535,"lng":4.3441,"sourceUrl":"https://maps.google.com/?q=Brasserie+Surrealiste+Brussels","verifiedDate":"2026-04","desc":"Stylish modern brewery-restaurant in a 1930s Art Deco warehouse. Creative craft beers in a beautiful setting.","openingHours":"18:00-01:00","tags":["high-end","date-night","brewery","food"],"beers":["Duvel","La Chouffe","Tripel Karmeliet","Delirium Tremens","Chimay Blue","Hoegaarden"]},
  {"id":9,"name":"Beerstorming","address":"Chaussée d'Alsemberg 75, 1060 Saint-Gilles","lat":50.8296,"lng:4.3429,"sourceUrl":"https://maps.google.com/?q=Beerstorming+Brussels","verifiedDate":"2026-04","desc":"Unique concept — brew your own beer while enjoying a great selection of craft brews.","openingHours":"17:30-23:00","tags":["chill","brewery","local"],"beers":["Saison Dupont","Orval","Cantillon Gueuze","3 Fonteinen Oude Geuze","Duvel","Rodenbach Grand Cru"]},
  {"id":10,"name":"En Stoemelings","address":"Rue Dieudonné Lefèvre 37, 1020 Brussels","lat":50.8753,"lng":4.3468,"sourceUrl":"https://maps.google.com/?q=En+Stoemelings+Brussels","verifiedDate":"2026-04","desc":"Cozy local brewery focused on artisanal Brussels beers. A true neighborhood gem.","openingHours":"16:00-22:00","tags":["chill","brewery","local","budget"],"beers":["Saison Dupont","Cantillon Gueuze","Hoegaarden","Jupiler","Stella Artois"]},
  {"id":11,"name":"À La Bécasse","address":"Rue de Tabora 11, 1000 Brussels","lat":50.8492,"lng":4.3512,"sourceUrl":"https://maps.google.com/?q=A+La+Becasse+Brussels","verifiedDate":"2026-04","desc":"Historic brown café serving Lambic Doux in traditional ceramic jugs since 1877.","openingHours":"11:00-00:00","tags":["historic","chill","touristy"],"beers":["Lindemans Kriek","Hoegaarden","Leffe Blond","Jupiler","Stella Artois"]},
  {"id":12,"name":"La Fleur en Papier Doré","address":"Rue des Alexiens 55, 1000 Brussels","lat":50.8432,"lng":4.3486,"sourceUrl":"https://www.lafleurenpapier.be/","verifiedDate":"2026-04","desc":"Legendary café once frequented by Surrealists like René Magritte. Dripping with history.","openingHours":"11:00-00:00","tags":["historic","chill","date-night","local"],"beers":["Chimay Blue","Chimay Red","Orval","Westmalle Tripel","Duvel","Leffe Blond","Rochefort 8","Cantillon Gueuze"]},
  {"id":13,"name":"Au Daringman","address":"Rue de Flandre 37, 1000 Brussels","lat":50.8519,"lng":4.3448,"sourceUrl":"https://maps.google.com/?q=Au+Daringman+Brussels","verifiedDate":"2026-04","desc":"Classic unpretentious 'brown café' — authentic local experience away from tourist tracks.","openingHours":"10:00-02:00","tags":["chill","local","budget","sports"],"beers":["Chimay Red","Duvel","Leffe Blond","Leffe Brune","Jupiler","Stella Artois","Hoegaarden"]},
  {"id":14,"name":"Brasserie Verschueren","address":"Parvis de Saint-Gilles 11-13, 1060 Saint-Gilles","lat":50.8310,"lng":4.3470,"sourceUrl":"https://www.brasserie-verschueren.be/","verifiedDate":"2026-04","desc":"Local institution in vibrant Saint-Gilles. Fantastic terrace and deep football culture.","openingHours":"10:00-01:00","tags":["chill","local","terrace","sports","budget"],"beers":["Duvel","Chimay Blue","Orval","Westmalle Tripel","Saison Dupont","Jupiler","Stella Artois","La Chouffe"]},
  {"id":15,"name":"Beer Capital","address":"Rue de la Bourse 29, 1000 Brussels","lat":50.8485,"lng":4.3490,"sourceUrl":"https://maps.google.com/?q=Beer+Capital+Brussels","verifiedDate":"2026-04","desc":"Near the old Stock Exchange. Wide selection, friendly staff, and big screens for sports.","openingHours":"11:00-02:00","tags":["lively","touristy","sports","terrace"],"beers":["Duvel","Delirium Tremens","Chimay Blue","Tripel Karmeliet","Pauwel Kwak","Leffe Blond","Jupiler","Hoegaarden","La Chouffe","Gulden Draak"]},
  {"id":16,"name":"Little Delirium","address":"Impasse de la Fidélité 4, 1000 Brussels","lat":50.8488,"lng":4.3535,"sourceUrl":"https://www.deliriumvillage.com/","verifiedDate":"2026-04","desc":"Smaller and more relaxed alternative to the main Delirium Café. Same excellent selection.","openingHours":"16:00-02:00","tags":["lively","touristy"],"beers":["Delirium Tremens","Duvel","Chimay Blue","La Chouffe","Tripel Karmeliet","Hoegaarden","Pauwel Kwak"]},
  {"id":17,"name":"La Porte Noire","address":"Rue des Alexiens 67, 1000 Brussels","lat":50.8428,"lng":4.3479,"sourceUrl":"https://www.laporteno ire.be/","verifiedDate":"2026-04","desc":"Atmospheric 16th-century vaulted cellar bar. Great whiskies and excellent Belgian beer list.","openingHours":"17:00-02:00","tags":["lively","date-night","historic"],"beers":["Chimay Blue","Rochefort 10","Orval","Westmalle Tripel","Duvel","Cantillon Gueuze","Rodenbach Grand Cru","St. Bernardus Abt 12"]},
  {"id":18,"name":"Bier Circus","address":"Rue de l'Enseignement 57, 1000 Brussels","lat":50.8522,"lng":4.3642,"sourceUrl":"https://www.bier-circus.be/","verifiedDate":"2026-04","desc":"Comprehensive Belgian beer list with expert food pairings. A beer education destination.","openingHours":"11:30-14:30, 18:00-23:00","tags":["chill","food","local"],"beers":["Chimay Blue","Chimay Red","Westmalle Dubbel","Westmalle Tripel","Orval","Rochefort 8","Rochefort 10","Duvel","Rodenbach Grand Cru","Duchesse de Bourgogne","Saison Dupont","Cantillon Gueuze","3 Fonteinen Oude Geuze"]},
  {"id":19,"name":"GIST","address":"Place de la Vieille Halle aux Blés 30, 1000 Brussels","lat":50.8450,"lng":4.3530,"sourceUrl":"https://maps.google.com/?q=GIST+bar+Brussels","verifiedDate":"2026-04","desc":"Focused, high-quality craft beer bar with curated vinyl music. For discerning beer lovers.","openingHours":"16:00-00:00","tags":["chill","local","date-night"],"beers":["Cantillon Gueuze","3 Fonteinen Oude Geuze","Saison Dupont","Orval","Rodenbach Grand Cru","Fantôme Saison","Duvel"]},
  {"id":20,"name":"Chez Moeder Lambic (Original)","address":"Rue de Savoie 68, 1060 Saint-Gilles","lat":50.8250,"lng":4.3500,"sourceUrl":"https://www.moederlambic.com/","verifiedDate":"2026-04","desc":"The original Moeder Lambic. More intimate than Fontainas, equally impressive beer list.","openingHours":"16:00-01:00","tags":["chill","local","date-night","food"],"beers":["Cantillon Gueuze","3 Fonteinen Oude Geuze","Boon Oude Geuze","Orval","Saison Dupont","Rodenbach Grand Cru","Duchesse de Bourgogne","Fantôme Saison"]},
  {"id":21,"name":"Nüetnigenansen","address":"Rue du Lombard 25, 1000 Brussels","lat":50.8445,"lng":4.3500,"sourceUrl":"https://maps.google.com/?q=Nuetnigenough+Brussels","verifiedDate":"2026-04","desc":"Hidden gem beer-restaurant. Expert beer-food pairings with rare Belgian brews and hearty Flemish cuisine.","openingHours":"17:00-22:30","tags":["chill","food","local","high-end"],"beers":["Chimay Blue","Rochefort 10","Orval","Westmalle Dubbel","Westmalle Tripel","Cantillon Gueuze","St. Bernardus Abt 12","Duchesse de Bourgogne"]},
  {"id":22,"name":"Café Belga","address":"Place Eugène Flagey 18, 1050 Ixelles","lat":50.8277,"lng:4.3724,"sourceUrl":"https://maps.google.com/?q=Cafe+Belga+Flagey+Brussels","verifiedDate":"2026-04","desc":"Iconic Art Deco café on Place Flagey. Legendary terrace overlooking the ponds — a Brussels institution.","openingHours":"08:00-02:00","tags":["lively","terrace","local","historic"],"beers":["Duvel","Chimay Blue","Orval","Westmalle Tripel","Hoegaarden","Leffe Blond","Jupiler","Stella Artois","Delirium Tremens"]},
  {"id":23,"name":"L'Ultime Atome","address":"Rue Saint-Boniface 14, 1050 Ixelles","lat":50.8349,"lng":4.3659,"sourceUrl":"https://maps.google.com/?q=L'Ultime+Atome+Brussels","verifiedDate":"2026-04","desc":"Neighbourhood institution in Saint-Boniface with 90+ Belgian beers. Retro charm and great terrace.","openingHours":"09:00-00:00","tags":["chill","local","terrace","food","budget"],"beers":["Chimay Blue","Chimay Red","Orval","Westmalle Tripel","Duvel","Rochefort 10","La Chouffe","Tripel Karmeliet","Saison Dupont","Jupiler"]},
  {"id":24,"name":"Le Pantin","address":"Chaussée d'Ixelles 382, 1050 Ixelles","lat":50.8295,"lng":4.3704,"sourceUrl":"https://maps.google.com/?q=Le+Pantin+Ixelles+Brussels","verifiedDate":"2026-04","desc":"Bohemian student pub near Flagey. Board games, quirky punk decor, and rotating indie beer selection.","openingHours":"16:00-02:00","tags":["chill","local","budget"],"beers":["Saison Dupont","Cantillon Gueuze","Orval","Duvel","Jupiler","La Chouffe"]},
  {"id":25,"name":"Beers Bank","address":"Place Jourdan 1, 1040 Etterbeek","lat":50.8378,"lng":4.3881,"sourceUrl":"https://maps.google.com/?q=Beers+Bank+Place+Jourdan+Etterbeek","verifiedDate":"2026-04","desc":"Friendly craft beer bar on Place Jourdan with 50+ Belgian beers. Family-friendly and good for sports.","openingHours":"16:00-00:00","tags":["chill","local","sports","terrace","budget"],"beers":["Duvel","Chimay Blue","Tripel Karmeliet","La Chouffe","Delirium Tremens","Jupiler","Hoegaarden","Leffe Blond"]}
]
